{
  "type": "FeatureCollection",
  "name": "Global Target Deck",
  "features": [
    {"type": "Feature", "properties": {"name": "Tokyo", "country": "Japan", "region": "APAC"}, "geometry": {"type": "Point", "coordinates": [139.7, 35.7]}},
    {"type": "Feature", "properties": {"name": "Seoul", "country": "South Korea", "region": "APAC"}, "geometry": {"type": "Point", "coordinates": [127.0, 37.6]}},
    {"type": "Feature", "properties": {"name": "Beijing", "country": "China", "region": "APAC"}, "geometry": {"type": "Point", "coordinates": [116.4, 39.9]}},
    {"type": "Feature", "properties": {"name": "Shanghai", "country": "China", "region": "APAC"}, "geometry": {"type": "Point", "coordinates": [121.5, 31.2]}},
    {"type": "Feature", "properties": {"name": "Taipei", "country": "Taiwan", "region": "APAC"}, "geometry": {"type": "Point", "coordinates": [121.5, 25.0]}},
    {"type": "Feature", "properties": {"name": "Osaka", "country": "Japan", "region": "APAC"}, "geometry": {"type": "Point", "coordinates": [135.5, 34.7]}},
    {"type": "Feature", "properties": {"name": "Hong Kong", "country": "China", "region": "APAC"}, "geometry": {"type": "Point", "coordinates": [114.2, 22.3]}},
    {"type": "Feature", "properties": {"name": "Shenzhen", "country": "China", "region": "APAC"}, "geometry": {"type": "Point", "coordinates": [114.1, 22.5]}},
    {"type": "Feature", "properties": {"name": "Busan", "country": "South Korea", "region": "APAC"}, "geometry": {"type": "Point", "coordinates": [129.0, 35.2]}},
    {"type": "Feature", "properties": {"name": "Nanjing", "country": "China", "region": "APAC"}, "geometry": {"type": "Point", "coordinates": [118.8, 32.1]}},
    {"type": "Feature", "properties": {"name": "Nagoya", "country": "Japan", "region": "APAC"}, "geometry": {"type": "Point", "coordinates": [136.9, 35.2]}},
    {"type": "Feature", "properties": {"name": "Yokohama", "country": "Japan", "region": "APAC"}, "geometry": {"type": "Point", "coordinates": [139.6, 35.4]}},
    {"type": "Feature", "properties": {"name": "Fukuoka", "country": "Japan", "region": "APAC"}, "geometry": {"type": "Point", "coordinates": [130.4, 33.6]}},
    {"type": "Feature", "properties": {"name": "Sapporo", "country": "Japan", "region": "APAC"}, "geometry": {"type": "Point", "coordinates": [141.3, 43.1]}},
    {"type": "Feature", "properties": {"name": "Incheon", "country": "South Korea", "region": "APAC"}, "geometry": {"type": "Point", "coordinates": [126.7, 37.5]}},
    {"type": "Feature", "properties": {"name": "Daegu", "country": "South Korea", "region": "APAC"}, "geometry": {"type": "Point", "coordinates": [128.6, 35.9]}},
    {"type": "Feature", "properties": {"name": "Guangzhou", "country": "China", "region": "APAC"}, "geometry": {"type": "Point", "coordinates": [113.3, 23.1]}},
    {"type": "Feature", "properties": {"name": "Hangzhou", "country": "China", "region": "APAC"}, "geometry": {"type": "Point", "coordinates": [120.2, 30.3]}},
    {"type": "Feature", "properties": {"name": "Wuhan", "country": "China", "region": "APAC"}, "geometry": {"type": "Point", "coordinates": [114.3, 30.6]}},
    {"type": "Feature", "properties": {"name": "Xian", "country": "China", "region": "APAC"}, "geometry": {"type": "Point", "coordinates": [108.9, 34.3]}},
    {"type": "Feature", "properties": {"name": "Tianjin", "country": "China", "region": "APAC"}, "geometry": {"type": "Point", "coordinates": [117.2, 39.1]}},
    {"type": "Feature", "properties": {"name": "Qingdao", "country": "China", "region": "APAC"}, "geometry": {"type": "Point", "coordinates": [120.4, 36.1]}},
    {"type": "Feature", "properties": {"name": "Dalian", "country": "China", "region": "APAC"}, "geometry": {"type": "Point", "coordinates": [121.6, 38.9]}},
    {"type": "Feature", "properties": {"name": "Kaohsiung", "country": "Taiwan", "region": "APAC"}, "geometry": {"type": "Point", "coordinates": [120.3, 22.6]}},
    {"type": "Feature", "properties": {"name": "Macau", "country": "China", "region": "APAC"}, "geometry": {"type": "Point", "coordinates": [113.5, 22.2]}},
    {"type": "Feature", "properties": {"name": "Pyongyang", "country": "North Korea", "region": "APAC"}, "geometry": {"type": "Point", "coordinates": [125.8, 39.0]}},
    {"type": "Feature", "properties": {"name": "Vladivostok", "country": "Russia", "region": "APAC"}, "geometry": {"type": "Point", "coordinates": [131.9, 43.1]}},
    {"type": "Feature", "properties": {"name": "Manila", "country": "Philippines", "region": "APAC"}, "geometry": {"type": "Point", "coordinates": [121.0, 14.6]}},
    {"type": "Feature", "properties": {"name": "London", "country": "United Kingdom", "region": "Europe"}, "geometry": {"type": "Point", "coordinates": [-0.1, 51.5]}},
    {"type": "Feature", "properties": {"name": "Paris", "country": "France", "region": "Europe"}, "geometry": {"type": "Point", "coordinates": [2.3, 48.9]}},
    {"type": "Feature", "properties": {"name": "Berlin", "country": "Germany", "region": "Europe"}, "geometry": {"type": "Point", "coordinates": [13.4, 52.5]}},
    {"type": "Feature", "properties": {"name": "Rome", "country": "Italy", "region": "Europe"}, "geometry": {"type": "Point", "coordinates": [12.5, 41.9]}},
    {"type": "Feature", "properties": {"name": "Madrid", "country": "Spain", "region": "Europe"}, "geometry": {"type": "Point", "coordinates": [-3.7, 40.4]}},
    {"type": "Feature", "properties": {"name": "Amsterdam", "country": "Netherlands", "region": "Europe"}, "geometry": {"type": "Point", "coordinates": [4.9, 52.4]}},
    {"type": "Feature", "properties": {"name": "Vienna", "country": "Austria", "region": "Europe"}, "geometry": {"type": "Point", "coordinates": [16.4, 48.2]}},
    {"type": "Feature", "properties": {"name": "Warsaw", "country": "Poland", "region": "Europe"}, "geometry": {"type": "Point", "coordinates": [21.0, 52.2]}},
    {"type": "Feature", "properties": {"name": "Stockholm", "country": "Sweden", "region": "Europe"}, "geometry": {"type": "Point", "coordinates": [18.1, 59.3]}},
    {"type": "Feature", "properties": {"name": "Athens", "country": "Greece", "region": "Europe"}, "geometry": {"type": "Point", "coordinates": [23.7, 37.9]}},
    {"type": "Feature", "properties": {"name": "Brussels", "country": "Belgium", "region": "Europe"}, "geometry": {"type": "Point", "coordinates": [4.4, 50.8]}},
    {"type": "Feature", "properties": {"name": "Munich", "country": "Germany", "region": "Europe"}, "geometry": {"type": "Point", "coordinates": [11.6, 48.1]}},
    {"type": "Feature", "properties": {"name": "Barcelona", "country": "Spain", "region": "Europe"}, "geometry": {"type": "Point", "coordinates": [2.2, 41.4]}},
    {"type": "Feature", "properties": {"name": "Milan", "country": "Italy", "region": "Europe"}, "geometry": {"type": "Point", "coordinates": [9.2, 45.5]}},
    {"type": "Feature", "properties": {"name": "Prague", "country": "Czech Republic", "region": "Europe"}, "geometry": {"type": "Point", "coordinates": [14.4, 50.1]}},
    {"type": "Feature", "properties": {"name": "Budapest", "country": "Hungary", "region": "Europe"}, "geometry": {"type": "Point", "coordinates": [19.0, 47.5]}},
    {"type": "Feature", "properties": {"name": "Copenhagen", "country": "Denmark", "region": "Europe"}, "geometry": {"type": "Point", "coordinates": [12.6, 55.7]}},
    {"type": "Feature", "properties": {"name": "Oslo", "country": "Norway", "region": "Europe"}, "geometry": {"type": "Point", "coordinates": [10.8, 59.9]}},
    {"type": "Feature", "properties": {"name": "Helsinki", "country": "Finland", "region": "Europe"}, "geometry": {"type": "Point", "coordinates": [24.9, 60.2]}},
    {"type": "Feature", "properties": {"name": "Dublin", "country": "Ireland", "region": "Europe"}, "geometry": {"type": "Point", "coordinates": [-6.3, 53.3]}},
    {"type": "Feature", "properties": {"name": "Lisbon", "country": "Portugal", "region": "Europe"}, "geometry": {"type": "Point", "coordinates": [-9.1, 38.7]}},
    {"type": "Feature", "properties": {"name": "Zurich", "country": "Switzerland", "region": "Europe"}, "geometry": {"type": "Point", "coordinates": [8.5, 47.4]}},
    {"type": "Feature", "properties": {"name": "Lyon", "country": "France", "region": "Europe"}, "geometry": {"type": "Point", "coordinates": [4.8, 45.8]}},
    {"type": "Feature", "properties": {"name": "Hamburg", "country": "Germany", "region": "Europe"}, "geometry": {"type": "Point", "coordinates": [10.0, 53.6]}},
    {"type": "Feature", "properties": {"name": "Manchester", "country": "United Kingdom", "region": "Europe"}, "geometry": {"type": "Point", "coordinates": [-2.2, 53.5]}},
    {"type": "Feature", "properties": {"name": "Edinburgh", "country": "United Kingdom", "region": "Europe"}, "geometry": {"type": "Point", "coordinates": [-3.2, 55.9]}},
    {"type": "Feature", "properties": {"name": "Marseille", "country": "France", "region": "Europe"}, "geometry": {"type": "Point", "coordinates": [5.4, 43.3]}},
    {"type": "Feature", "properties": {"name": "Naples", "country": "Italy", "region": "Europe"}, "geometry": {"type": "Point", "coordinates": [14.2, 40.8]}},
    {"type": "Feature", "properties": {"name": "Krakow", "country": "Poland", "region": "Europe"}, "geometry": {"type": "Point", "coordinates": [19.9, 50.1]}},
    {"type": "Feature", "properties": {"name": "Bucharest", "country": "Romania", "region": "Europe"}, "geometry": {"type": "Point", "coordinates": [26.1, 44.4]}},
    {"type": "Feature", "properties": {"name": "Kyiv", "country": "Ukraine", "region": "Europe"}, "geometry": {"type": "Point", "coordinates": [30.5, 50.5]}},
    {"type": "Feature", "properties": {"name": "Kharkiv", "country": "Ukraine", "region": "Europe"}, "geometry": {"type": "Point", "coordinates": [36.3, 50.0]}},
    {"type": "Feature", "properties": {"name": "Odesa", "country": "Ukraine", "region": "Europe"}, "geometry": {"type": "Point", "coordinates": [30.7, 46.5]}},
    {"type": "Feature", "properties": {"name": "Dnipro", "country": "Ukraine", "region": "Europe"}, "geometry": {"type": "Point", "coordinates": [35.0, 48.5]}},
    {"type": "Feature", "properties": {"name": "Lviv", "country": "Ukraine", "region": "Europe"}, "geometry": {"type": "Point", "coordinates": [24.0, 49.8]}},
    {"type": "Feature", "properties": {"name": "Zaporizhzhia", "country": "Ukraine", "region": "Europe"}, "geometry": {"type": "Point", "coordinates": [35.1, 47.8]}},
    {"type": "Feature", "properties": {"name": "Mariupol", "country": "Ukraine", "region": "Europe"}, "geometry": {"type": "Point", "coordinates": [37.5, 47.1]}},
    {"type": "Feature", "properties": {"name": "Sevastopol", "country": "Crimea", "region": "Europe"}, "geometry": {"type": "Point", "coordinates": [33.5, 44.6]}},
    {"type": "Feature", "properties": {"name": "Simferopol", "country": "Crimea", "region": "Europe"}, "geometry": {"type": "Point", "coordinates": [34.1, 44.9]}},
    {"type": "Feature", "properties": {"name": "Kerch", "country": "Crimea", "region": "Europe"}, "geometry": {"type": "Point", "coordinates": [36.5, 45.4]}},
    {"type": "Feature", "properties": {"name": "Dubai", "country": "United Arab Emirates", "region": "Middle East"}, "geometry": {"type": "Point", "coordinates": [55.3, 25.2]}},
    {"type": "Feature", "properties": {"name": "Riyadh", "country": "Saudi Arabia", "region": "Middle East"}, "geometry": {"type": "Point", "coordinates": [46.7, 24.7]}},
    {"type": "Feature", "properties": {"name": "Tel Aviv", "country": "Israel", "region": "Middle East"}, "geometry": {"type": "Point", "coordinates": [34.8, 32.1]}},
    {"type": "Feature", "properties": {"name": "Cairo", "country": "Egypt", "region": "Middle East"}, "geometry": {"type": "Point", "coordinates": [31.2, 30.0]}},
    {"type": "Feature", "properties": {"name": "Doha", "country": "Qatar", "region": "Middle East"}, "geometry": {"type": "Point", "coordinates": [51.5, 25.3]}},
    {"type": "Feature", "properties": {"name": "Abu Dhabi", "country": "United Arab Emirates", "region": "Middle East"}, "geometry": {"type": "Point", "coordinates": [54.4, 24.5]}},
    {"type": "Feature", "properties": {"name": "Amman", "country": "Jordan", "region": "Middle East"}, "geometry": {"type": "Point", "coordinates": [35.9, 31.9]}},
    {"type": "Feature", "properties": {"name": "Kuwait City", "country": "Kuwait", "region": "Middle East"}, "geometry": {"type": "Point", "coordinates": [47.9, 29.4]}},
    {"type": "Feature", "properties": {"name": "Muscat", "country": "Oman", "region": "Middle East"}, "geometry": {"type": "Point", "coordinates": [58.4, 23.6]}},
    {"type": "Feature", "properties": {"name": "Manama", "country": "Bahrain", "region": "Middle East"}, "geometry": {"type": "Point", "coordinates": [50.6, 26.2]}},
    {"type": "Feature", "properties": {"name": "Jerusalem", "country": "Israel", "region": "Middle East"}, "geometry": {"type": "Point", "coordinates": [35.2, 31.8]}},
    {"type": "Feature", "properties": {"name": "Beirut", "country": "Lebanon", "region": "Middle East"}, "geometry": {"type": "Point", "coordinates": [35.5, 33.9]}},
    {"type": "Feature", "properties": {"name": "Baghdad", "country": "Iraq", "region": "Middle East"}, "geometry": {"type": "Point", "coordinates": [44.4, 33.3]}},
    {"type": "Feature", "properties": {"name": "Tehran", "country": "Iran", "region": "Middle East"}, "geometry": {"type": "Point", "coordinates": [51.4, 35.7]}},
    {"type": "Feature", "properties": {"name": "Jeddah", "country": "Saudi Arabia", "region": "Middle East"}, "geometry": {"type": "Point", "coordinates": [39.2, 21.5]}},
    {"type": "Feature", "properties": {"name": "Mecca", "country": "Saudi Arabia", "region": "Middle East"}, "geometry": {"type": "Point", "coordinates": [39.8, 21.4]}},
    {"type": "Feature", "properties": {"name": "Medina", "country": "Saudi Arabia", "region": "Middle East"}, "geometry": {"type": "Point", "coordinates": [39.6, 24.5]}},
    {"type": "Feature", "properties": {"name": "Dammam", "country": "Saudi Arabia", "region": "Middle East"}, "geometry": {"type": "Point", "coordinates": [50.1, 26.4]}},
    {"type": "Feature", "properties": {"name": "Sharjah", "country": "United Arab Emirates", "region": "Middle East"}, "geometry": {"type": "Point", "coordinates": [55.4, 25.3]}},
    {"type": "Feature", "properties": {"name": "Ankara", "country": "Turkey", "region": "Middle East"}, "geometry": {"type": "Point", "coordinates": [32.9, 39.9]}},
    {"type": "Feature", "properties": {"name": "Istanbul", "country": "Turkey", "region": "Middle East"}, "geometry": {"type": "Point", "coordinates": [29.0, 41.0]}},
    {"type": "Feature", "properties": {"name": "Erbil", "country": "Iraq", "region": "Middle East"}, "geometry": {"type": "Point", "coordinates": [44.0, 36.2]}},
    {"type": "Feature", "properties": {"name": "Basra", "country": "Iraq", "region": "Middle East"}, "geometry": {"type": "Point", "coordinates": [47.8, 30.5]}},
    {"type": "Feature", "properties": {"name": "Isfahan", "country": "Iran", "region": "Middle East"}, "geometry": {"type": "Point", "coordinates": [51.7, 32.6]}},
    {"type": "Feature", "properties": {"name": "Shiraz", "country": "Iran", "region": "Middle East"}, "geometry": {"type": "Point", "coordinates": [52.5, 29.6]}},
    {"type": "Feature", "properties": {"name": "Tabriz", "country": "Iran", "region": "Middle East"}, "geometry": {"type": "Point", "coordinates": [46.3, 38.1]}},
    {"type": "Feature", "properties": {"name": "Mashhad", "country": "Iran", "region": "Middle East"}, "geometry": {"type": "Point", "coordinates": [59.6, 36.3]}},
    {"type": "Feature", "properties": {"name": "Alexandria", "country": "Egypt", "region": "Middle East"}, "geometry": {"type": "Point", "coordinates": [29.9, 31.2]}},
    {"type": "Feature", "properties": {"name": "Izmir", "country": "Turkey", "region": "Middle East"}, "geometry": {"type": "Point", "coordinates": [27.1, 38.4]}},
    {"type": "Feature", "properties": {"name": "Antalya", "country": "Turkey", "region": "Middle East"}, "geometry": {"type": "Point", "coordinates": [30.7, 36.9]}},
    {"type": "Feature", "properties": {"name": "New York", "country": "United States", "region": "North America"}, "geometry": {"type": "Point", "coordinates": [-74.0, 40.7]}},
    {"type": "Feature", "properties": {"name": "Los Angeles", "country": "United States", "region": "North America"}, "geometry": {"type": "Point", "coordinates": [-118.2, 34.1]}},
    {"type": "Feature", "properties": {"name": "Chicago", "country": "United States", "region": "North America"}, "geometry": {"type": "Point", "coordinates": [-87.6, 41.9]}},
    {"type": "Feature", "properties": {"name": "Toronto", "country": "Canada", "region": "North America"}, "geometry": {"type": "Point", "coordinates": [-79.4, 43.7]}},
    {"type": "Feature", "properties": {"name": "Mexico City", "country": "Mexico", "region": "North America"}, "geometry": {"type": "Point", "coordinates": [-99.1, 19.4]}},
    {"type": "Feature", "properties": {"name": "Washington DC", "country": "United States", "region": "North America"}, "geometry": {"type": "Point", "coordinates": [-77.0, 38.9]}},
    {"type": "Feature", "properties": {"name": "San Francisco", "country": "United States", "region": "North America"}, "geometry": {"type": "Point", "coordinates": [-122.4, 37.8]}},
    {"type": "Feature", "properties": {"name": "Vancouver", "country": "Canada", "region": "North America"}, "geometry": {"type": "Point", "coordinates": [-123.1, 49.3]}},
    {"type": "Feature", "properties": {"name": "Sao Paulo", "country": "Brazil", "region": "South America"}, "geometry": {"type": "Point", "coordinates": [-46.6, -23.5]}},
    {"type": "Feature", "properties": {"name": "Buenos Aires", "country": "Argentina", "region": "South America"}, "geometry": {"type": "Point", "coordinates": [-58.4, -34.6]}},
    {"type": "Feature", "properties": {"name": "Rio de Janeiro", "country": "Brazil", "region": "South America"}, "geometry": {"type": "Point", "coordinates": [-43.2, -22.9]}},
    {"type": "Feature", "properties": {"name": "Lima", "country": "Peru", "region": "South America"}, "geometry": {"type": "Point", "coordinates": [-77.0, -12.0]}},
    {"type": "Feature", "properties": {"name": "Bogota", "country": "Colombia", "region": "South America"}, "geometry": {"type": "Point", "coordinates": [-74.1, 4.6]}},
    {"type": "Feature", "properties": {"name": "Santiago", "country": "Chile", "region": "South America"}, "geometry": {"type": "Point", "coordinates": [-70.7, -33.4]}},
    {"type": "Feature", "properties": {"name": "Lagos", "country": "Nigeria", "region": "Africa"}, "geometry": {"type": "Point", "coordinates": [3.4, 6.5]}},
    {"type": "Feature", "properties": {"name": "Johannesburg", "country": "South Africa", "region": "Africa"}, "geometry": {"type": "Point", "coordinates": [28.0, -26.2]}},
    {"type": "Feature", "properties": {"name": "Nairobi", "country": "Kenya", "region": "Africa"}, "geometry": {"type": "Point", "coordinates": [36.8, -1.3]}},
    {"type": "Feature", "properties": {"name": "Cape Town", "country": "South Africa", "region": "Africa"}, "geometry": {"type": "Point", "coordinates": [18.4, -33.9]}},
    {"type": "Feature", "properties": {"name": "Casablanca", "country": "Morocco", "region": "Africa"}, "geometry": {"type": "Point", "coordinates": [-7.6, 33.6]}},
    {"type": "Feature", "properties": {"name": "Addis Ababa", "country": "Ethiopia", "region": "Africa"}, "geometry": {"type": "Point", "coordinates": [38.7, 9.0]}},
    {"type": "Feature", "properties": {"name": "Mumbai", "country": "India", "region": "India"}, "geometry": {"type": "Point", "coordinates": [72.9, 19.1]}},
    {"type": "Feature", "properties": {"name": "Delhi", "country": "India", "region": "India"}, "geometry": {"type": "Point", "coordinates": [77.2, 28.6]}},
    {"type": "Feature", "properties": {"name": "Bangalore", "country": "India", "region": "India"}, "geometry": {"type": "Point", "coordinates": [77.6, 13.0]}},
    {"type": "Feature", "properties": {"name": "Chennai", "country": "India", "region": "India"}, "geometry": {"type": "Point", "coordinates": [80.3, 13.1]}},
    {"type": "Feature", "properties": {"name": "Kolkata", "country": "India", "region": "India"}, "geometry": {"type": "Point", "coordinates": [88.4, 22.6]}},
    {"type": "Feature", "properties": {"name": "Sydney", "country": "Australia", "region": "Oceania"}, "geometry": {"type": "Point", "coordinates": [151.2, -33.9]}},
    {"type": "Feature", "properties": {"name": "Melbourne", "country": "Australia", "region": "Oceania"}, "geometry": {"type": "Point", "coordinates": [145.0, -37.8]}},
    {"type": "Feature", "properties": {"name": "Brisbane", "country": "Australia", "region": "Oceania"}, "geometry": {"type": "Point", "coordinates": [153.0, -27.5]}},
    {"type": "Feature", "properties": {"name": "Auckland", "country": "New Zealand", "region": "Oceania"}, "geometry": {"type": "Point", "coordinates": [174.8, -36.8]}},
    {"type": "Feature", "properties": {"name": "Perth", "country": "Australia", "region": "Oceania"}, "geometry": {"type": "Point", "coordinates": [115.9, -32.0]}}
  ]
}
